[
    {
        "attributes": {
            "NAME": "Big Bird Park Enclosure",
            "ADDRESS": "936 Lawnsberry Drive, Cumberland",
            "LATITUDE": 45.486954,
            "LONGITUDE": -75.508182
        }
    },
    {
        "attributes": {
            "NAME": "Coyote Trail Park Enclosure",
            "ADDRESS": "1829 Trim Road",
            "LATITUDE": 45.477759,
            "LONGITUDE": -75.450519
        }
    },
    {
        "attributes": {
            "NAME": "Evergreen Park Enclosure",
            "ADDRESS": "906 Denison Crescent, Ottawa",
            "LATITUDE": 45.373028,
            "LONGITUDE": -75.75352
        }
    },
    {
        "attributes": {
            "NAME": "Hampton Park Enclosure",
            "ADDRESS": "645 Parkview Road, Ottawa",
            "LATITUDE": 45.388635,
            "LONGITUDE": -75.736034
        }
    },
    {
        "attributes": {
            "NAME": "Jack Purcell Park Enclosure",
            "ADDRESS": "320 Jack Purcell Lane, Ottawa",
            "LATITUDE": 45.414942,
            "LONGITUDE": -75.68908
        }
    },
    {
        "attributes": {
            "NAME": "Queenswood Ridge Park Enclosure",
            "ADDRESS": "346 Kennedy Lane East, Cumberland",
            "LATITUDE": 45.477604,
            "LONGITUDE": -75.501592
        }
    },
    {
        "attributes": {
            "NAME": "Rideau View Park Enclosure",
            "ADDRESS": "910 Earl Armstrong Road, Gloucester",
            "LATITUDE": 45.273047,
            "LONGITUDE": -75.68587
        }
    },
    {
        "attributes": {
            "NAME": "Shefford Sports Park Enclosure",
            "ADDRESS": "815 Shefford Road / 845 Shefford Road / 750 Green Creek Drive",
            "LATITUDE": 45.455122,
            "LONGITUDE": -75.589055
        }
    },
    {
        "attributes": {
            "NAME": "Sylvia Holden Park Enclosure",
            "ADDRESS": "641 O'Connor Street, Ottawa",
            "LATITUDE": 45.401776,
            "LONGITUDE": -75.681373
        }
    },
    {
        "attributes": {
            "NAME": "Don Boudria Park Enclosure",
            "ADDRESS": "655 Decoeur Drive",
            "LATITUDE": 45.445155,
            "LONGITUDE": -75.489302
        }
    },
    {
        "attributes": {
            "NAME": "Tech Wall Park Enclosure",
            "ADDRESS": "551-575 Laurier Ave W",
            "LATITUDE": 45.4157108,
            "LONGITUDE": -75.7074858
        }
    }
]